{
"type": "FeatureCollection",
"name": "ciudades",
"crs": { "type": "name", "properties": { "name": "urn:ogc:def:crs:OGC:1.3:CRS84" } },
"features": [
{ "type": "Feature", "properties": { "ValueId": 1, "PolyId": 0, "AREA": 0.0, "PERIMETER": 0.0, "CIUDADES#": 1, "CIUDADES-ID": 1, "POBLACION_": 1.0, "POBLACION1": 738.0, "NOMBRE": "RIOHACHA", "TIPO": 1, "POLYGONID": 0.0, "SCALE": 1.0, "ANGLE": 0.0 }, "geometry": { "type": "Point", "coordinates": [ -72.897751, 11.55157 ] } },
{ "type": "Feature", "properties": { "ValueId": 2, "PolyId": 0, "AREA": 0.0, "PERIMETER": 0.0, "CIUDADES#": 2, "CIUDADES-ID": 2, "POBLACION_": 5.0, "POBLACION1": 627.0, "NOMBRE": "SANTA MARTA", "TIPO": 1, "POLYGONID": 0.0, "SCALE": 1.0, "ANGLE": 0.0 }, "geometry": { "type": "Point", "coordinates": [ -74.18145, 11.249593 ] } },
{ "type": "Feature", "properties": { "ValueId": 3, "PolyId": 0, "AREA": 0.0, "PERIMETER": 0.0, "CIUDADES#": 3, "CIUDADES-ID": 3, "POBLACION_": 9.0, "POBLACION1": 1095.0, "NOMBRE": "BARRANQUILLA", "TIPO": 1, "POLYGONID": 0.0, "SCALE": 1.0, "ANGLE": 0.0 }, "geometry": { "type": "Point", "coordinates": [ -74.80619, 10.984133 ] } },
{ "type": "Feature", "properties": { "ValueId": 4, "PolyId": 0, "AREA": 0.0, "PERIMETER": 0.0, "CIUDADES#": 4, "CIUDADES-ID": 4, "POBLACION_": 39.0, "POBLACION1": 703.0, "NOMBRE": "VALLEDUPAR", "TIPO": 1, "POLYGONID": 0.0, "SCALE": 1.0, "ANGLE": 0.0 }, "geometry": { "type": "Point", "coordinates": [ -73.251259, 10.466677 ] } },
{ "type": "Feature", "properties": { "ValueId": 5, "PolyId": 0, "AREA": 0.0, "PERIMETER": 0.0, "CIUDADES#": 5, "CIUDADES-ID": 5, "POBLACION_": 43.0, "POBLACION1": 571.0, "NOMBRE": "CARTAGENA", "TIPO": 1, "POLYGONID": 0.0, "SCALE": 1.0, "ANGLE": 0.0 }, "geometry": { "type": "Point", "coordinates": [ -75.533585, 10.413728 ] } },
{ "type": "Feature", "properties": { "ValueId": 6, "PolyId": 0, "AREA": 0.0, "PERIMETER": 0.0, "CIUDADES#": 6, "CIUDADES-ID": 6, "POBLACION_": 94.0, "POBLACION1": 1650.0, "NOMBRE": "SINCELEJO", "TIPO": 1, "POLYGONID": 0.0, "SCALE": 1.0, "ANGLE": 0.0 }, "geometry": { "type": "Point", "coordinates": [ -75.391846, 9.3068628 ] } },
{ "type": "Feature", "properties": { "ValueId": 7, "PolyId": 0, "AREA": 0.0, "PERIMETER": 0.0, "CIUDADES#": 7, "CIUDADES-ID": 7, "POBLACION_": 127.0, "POBLACION1": 2345.0, "NOMBRE": "MONTERIA", "TIPO": 1, "POLYGONID": 0.0, "SCALE": 1.0, "ANGLE": 0.0 }, "geometry": { "type": "Point", "coordinates": [ -75.881882, 8.7569761 ] } },
{ "type": "Feature", "properties": { "ValueId": 8, "PolyId": 0, "AREA": 0.0, "PERIMETER": 0.0, "CIUDADES#": 8, "CIUDADES-ID": 8, "POBLACION_": 188.0, "POBLACION1": 179.0, "NOMBRE": "CUCUTA", "TIPO": 1, "POLYGONID": 0.0, "SCALE": 1.0, "ANGLE": 0.0 }, "geometry": { "type": "Point", "coordinates": [ -72.502998, 7.8913741 ] } },
{ "type": "Feature", "properties": { "ValueId": 9, "PolyId": 0, "AREA": 0.0, "PERIMETER": 0.0, "CIUDADES#": 9, "CIUDADES-ID": 9, "POBLACION_": 209.0, "POBLACION1": 270.0, "NOMBRE": "BUCARAMANGA", "TIPO": 1, "POLYGONID": 0.0, "SCALE": 1.0, "ANGLE": 0.0 }, "geometry": { "type": "Point", "coordinates": [ -73.120468, 7.1133103 ] } },
{ "type": "Feature", "properties": { "ValueId": 10, "PolyId": 0, "AREA": 0.0, "PERIMETER": 0.0, "CIUDADES#": 10, "CIUDADES-ID": 10, "POBLACION_": 210.0, "POBLACION1": 1256.0, "NOMBRE": "ARAUCA", "TIPO": 1, "POLYGONID": 0.0, "SCALE": 1.0, "ANGLE": 0.0 }, "geometry": { "type": "Point", "coordinates": [ -70.758385, 7.0793715 ] } },
{ "type": "Feature", "properties": { "ValueId": 11, "PolyId": 0, "AREA": 0.0, "PERIMETER": 0.0, "CIUDADES#": 11, "CIUDADES-ID": 11, "POBLACION_": 265.0, "POBLACION1": 338.0, "NOMBRE": "MEDELLIN", "TIPO": 1, "POLYGONID": 0.0, "SCALE": 1.0, "ANGLE": 0.0 }, "geometry": { "type": "Point", "coordinates": [ -75.592033, 6.241147 ] } },
{ "type": "Feature", "properties": { "ValueId": 12, "PolyId": 0, "AREA": 0.0, "PERIMETER": 0.0, "CIUDADES#": 12, "CIUDADES-ID": 12, "POBLACION_": 267.0, "POBLACION1": 75.0, "NOMBRE": "PUERTO CARRENO", "TIPO": 1, "POLYGONID": 0.0, "SCALE": 1.0, "ANGLE": 0.0 }, "geometry": { "type": "Point", "coordinates": [ -67.488503, 6.1847653 ] } },
{ "type": "Feature", "properties": { "ValueId": 13, "PolyId": 0, "AREA": 0.0, "PERIMETER": 0.0, "CIUDADES#": 13, "CIUDADES-ID": 13, "POBLACION_": 304.0, "POBLACION1": 318.0, "NOMBRE": "QUIBDO", "TIPO": 1, "POLYGONID": 0.0, "SCALE": 1.0, "ANGLE": 0.0 }, "geometry": { "type": "Point", "coordinates": [ -76.653778, 5.6910391 ] } },
{ "type": "Feature", "properties": { "ValueId": 14, "PolyId": 0, "AREA": 0.0, "PERIMETER": 0.0, "CIUDADES#": 14, "CIUDADES-ID": 14, "POBLACION_": 314.0, "POBLACION1": 433.0, "NOMBRE": "TUNJA", "TIPO": 1, "POLYGONID": 0.0, "SCALE": 1.0, "ANGLE": 0.0 }, "geometry": { "type": "Point", "coordinates": [ -73.362114, 5.5472946 ] } },
{ "type": "Feature", "properties": { "ValueId": 15, "PolyId": 0, "AREA": 0.0, "PERIMETER": 0.0, "CIUDADES#": 15, "CIUDADES-ID": 15, "POBLACION_": 327.0, "POBLACION1": 537.0, "NOMBRE": "YOPAL", "TIPO": 1, "POLYGONID": 0.0, "SCALE": 1.0, "ANGLE": 0.0 }, "geometry": { "type": "Point", "coordinates": [ -72.405563, 5.3465548 ] } },
{ "type": "Feature", "properties": { "ValueId": 16, "PolyId": 0, "AREA": 0.0, "PERIMETER": 0.0, "CIUDADES#": 16, "CIUDADES-ID": 16, "POBLACION_": 345.0, "POBLACION1": 371.0, "NOMBRE": "MANIZALES", "TIPO": 1, "POLYGONID": 0.0, "SCALE": 1.0, "ANGLE": 0.0 }, "geometry": { "type": "Point", "coordinates": [ -75.518288, 5.0671329 ] } },
{ "type": "Feature", "properties": { "ValueId": 17, "PolyId": 0, "AREA": 0.0, "PERIMETER": 0.0, "CIUDADES#": 17, "CIUDADES-ID": 17, "POBLACION_": 371.0, "POBLACION1": 484.0, "NOMBRE": "PEREIRA", "TIPO": 1, "POLYGONID": 0.0, "SCALE": 1.0, "ANGLE": 0.0 }, "geometry": { "type": "Point", "coordinates": [ -75.695602, 4.8276844 ] } },
{ "type": "Feature", "properties": { "ValueId": 18, "PolyId": 0, "AREA": 0.0, "PERIMETER": 0.0, "CIUDADES#": 18, "CIUDADES-ID": 18, "POBLACION_": 387.0, "POBLACION1": 458.0, "NOMBRE": "BOGOTA", "TIPO": 1, "POLYGONID": 0.0, "SCALE": 1.0, "ANGLE": 0.0 }, "geometry": { "type": "Point", "coordinates": [ -74.080513, 4.6302199 ] } },
{ "type": "Feature", "properties": { "ValueId": 19, "PolyId": 0, "AREA": 0.0, "PERIMETER": 0.0, "CIUDADES#": 19, "CIUDADES-ID": 19, "POBLACION_": 397.0, "POBLACION1": 499.0, "NOMBRE": "ARMENIA", "TIPO": 1, "POLYGONID": 0.0, "SCALE": 1.0, "ANGLE": 0.0 }, "geometry": { "type": "Point", "coordinates": [ -75.698441, 4.5313296 ] } },
{ "type": "Feature", "properties": { "ValueId": 20, "PolyId": 0, "AREA": 0.0, "PERIMETER": 0.0, "CIUDADES#": 20, "CIUDADES-ID": 20, "POBLACION_": 407.0, "POBLACION1": 483.0, "NOMBRE": "IBAGUE", "TIPO": 1, "POLYGONID": 0.0, "SCALE": 1.0, "ANGLE": 0.0 }, "geometry": { "type": "Point", "coordinates": [ -75.244141, 4.4406633 ] } },
{ "type": "Feature", "properties": { "ValueId": 21, "PolyId": 0, "AREA": 0.0, "PERIMETER": 0.0, "CIUDADES#": 21, "CIUDADES-ID": 21, "POBLACION_": 435.0, "POBLACION1": 660.0, "NOMBRE": "VILLAVICENCIO", "TIPO": 1, "POLYGONID": 0.0, "SCALE": 1.0, "ANGLE": 0.0 }, "geometry": { "type": "Point", "coordinates": [ -73.639641, 4.1503153 ] } },
{ "type": "Feature", "properties": { "ValueId": 22, "PolyId": 0, "AREA": 0.0, "PERIMETER": 0.0, "CIUDADES#": 22, "CIUDADES-ID": 22, "POBLACION_": 482.0, "POBLACION1": 688.0, "NOMBRE": "CALI", "TIPO": 1, "POLYGONID": 0.0, "SCALE": 1.0, "ANGLE": 0.0 }, "geometry": { "type": "Point", "coordinates": [ -76.522438, 3.4568553 ] } },
{ "type": "Feature", "properties": { "ValueId": 23, "PolyId": 0, "AREA": 0.0, "PERIMETER": 0.0, "CIUDADES#": 23, "CIUDADES-ID": 23, "POBLACION_": 506.0, "POBLACION1": 759.0, "NOMBRE": "NEIVA", "TIPO": 1, "POLYGONID": 0.0, "SCALE": 1.0, "ANGLE": 0.0 }, "geometry": { "type": "Point", "coordinates": [ -75.284149, 2.9287357 ] } },
{ "type": "Feature", "properties": { "ValueId": 24, "PolyId": 0, "AREA": 0.0, "PERIMETER": 0.0, "CIUDADES#": 24, "CIUDADES-ID": 24, "POBLACION_": 548.0, "POBLACION1": 854.0, "NOMBRE": "SAN JOSE DEL GUAVIARE", "TIPO": 1, "POLYGONID": 0.0, "SCALE": 1.0, "ANGLE": 0.0 }, "geometry": { "type": "Point", "coordinates": [ -72.579758, 2.5814319 ] } },
{ "type": "Feature", "properties": { "ValueId": 25, "PolyId": 0, "AREA": 0.0, "PERIMETER": 0.0, "CIUDADES#": 25, "CIUDADES-ID": 25, "POBLACION_": 562.0, "POBLACION1": 917.0, "NOMBRE": "POPAYAN", "TIPO": 1, "POLYGONID": 0.0, "SCALE": 1.0, "ANGLE": 0.0 }, "geometry": { "type": "Point", "coordinates": [ -76.604263, 2.4202189 ] } },
{ "type": "Feature", "properties": { "ValueId": 26, "PolyId": 0, "AREA": 0.0, "PERIMETER": 0.0, "CIUDADES#": 26, "CIUDADES-ID": 26, "POBLACION_": 639.0, "POBLACION1": 1076.0, "NOMBRE": "FLORENCIA", "TIPO": 1, "POLYGONID": 0.0, "SCALE": 1.0, "ANGLE": 0.0 }, "geometry": { "type": "Point", "coordinates": [ -75.615036, 1.605929 ] } },
{ "type": "Feature", "properties": { "ValueId": 27, "PolyId": 0, "AREA": 0.0, "PERIMETER": 0.0, "CIUDADES#": 27, "CIUDADES-ID": 27, "POBLACION_": 666.0, "POBLACION1": 1042.0, "NOMBRE": "PASTO", "TIPO": 1, "POLYGONID": 0.0, "SCALE": 1.0, "ANGLE": 0.0 }, "geometry": { "type": "Point", "coordinates": [ -77.272644, 1.2136912 ] } },
{ "type": "Feature", "properties": { "ValueId": 28, "PolyId": 0, "AREA": 0.0, "PERIMETER": 0.0, "CIUDADES#": 28, "CIUDADES-ID": 28, "POBLACION_": 672.0, "POBLACION1": 1073.0, "NOMBRE": "MOCOA", "TIPO": 1, "POLYGONID": 0.0, "SCALE": 1.0, "ANGLE": 0.0 }, "geometry": { "type": "Point", "coordinates": [ -76.619102, 1.1486448 ] } },
{ "type": "Feature", "properties": { "ValueId": 29, "PolyId": 0, "AREA": 0.0, "PERIMETER": 0.0, "CIUDADES#": 29, "CIUDADES-ID": 29, "POBLACION_": 738.0, "POBLACION1": 1190.0, "NOMBRE": "LETICIA", "TIPO": 1, "POLYGONID": 0.0, "SCALE": 1.0, "ANGLE": 0.0 }, "geometry": { "type": "Point", "coordinates": [ -69.932808, -4.2054286 ] } },
{ "type": "Feature", "properties": { "ValueId": 30, "PolyId": 0, "AREA": 0.0, "PERIMETER": 0.0, "CIUDADES#": 30, "CIUDADES-ID": 30, "POBLACION_": 1570.0, "POBLACION1": 112.0, "NOMBRE": "PUERTO INIRIDA", "TIPO": 1, "POLYGONID": 0.0, "SCALE": 1.0, "ANGLE": 0.0 }, "geometry": { "type": "Point", "coordinates": [ -67.920464, 3.8599672 ] } },
{ "type": "Feature", "properties": { "ValueId": 31, "PolyId": 0, "AREA": 0.0, "PERIMETER": 0.0, "CIUDADES#": 31, "CIUDADES-ID": 31, "POBLACION_": 1655.0, "POBLACION1": 1152.0, "NOMBRE": "MITU", "TIPO": 1, "POLYGONID": 0.0, "SCALE": 1.0, "ANGLE": 0.0 }, "geometry": { "type": "Point", "coordinates": [ -70.220993, 1.266477 ] } }
]
}
